,City,Lat,Lng,Max Temp,Humidity,Cloudiness,Wind Speed,Country,Date
0,concepcion del oro,24.63,-101.42,53.71,45,0,6.82,MX,1604282335
1,douglas,41.3,-96.17,39.99,51,1,4.54,US,1604282335
2,nevers,46.92,3.33,63.0,83,100,4.83,FR,1604282336
3,nokaneng,-19.67,22.27,71.2,36,17,5.88,BW,1604282336
4,nova olimpia,-14.8,-57.29,75.29,66,93,1.97,BR,1604282086
5,nikolskoye,59.7,30.79,35.6,100,90,6.71,RU,1604282336
6,barrow,71.29,-156.79,28.4,63,75,21.92,US,1604282101
7,mataura,-46.19,168.86,57.0,61,75,11.01,NZ,1604282337
8,kodiak,57.79,-152.41,30.2,39,90,14.99,US,1604282337
9,albany,42.6,-73.97,41.0,77,97,8.46,US,1604282337
10,rikitea,-23.12,-134.97,73.92,86,95,24.0,PF,1604281996
11,imeni morozova,59.98,31.04,35.01,99,10,8.43,RU,1604282338
12,ushuaia,-54.8,-68.3,57.2,54,75,3.36,AR,1604282338
13,gazanjyk,39.24,55.52,64.29,28,35,8.23,TM,1604282338
14,hobart,-42.88,147.33,75.99,46,0,6.93,AU,1604281896
15,punta arenas,-53.15,-70.92,51.8,76,0,3.36,CL,1604282339
16,puerto ayora,-0.74,-90.35,69.01,90,100,5.01,EC,1604282339
17,hermanus,-34.42,19.23,63.0,83,89,7.0,ZA,1604282339
18,komsomolskiy,40.43,71.72,41.0,38,100,4.7,UZ,1604282339
19,twin falls,42.35,-114.64,48.0,52,1,4.7,US,1604282340
20,dikson,73.51,80.55,18.0,98,90,8.41,RU,1604282340
21,san andres,12.58,-81.7,80.6,83,90,4.7,CO,1604282283
22,niamey,13.51,2.11,80.6,16,0,9.28,NE,1604282341
23,general pico,-35.66,-63.76,59.52,64,88,9.4,AR,1604282341
24,gat,31.61,34.76,70.0,78,100,1.99,IL,1604282104
25,ginir,7.13,40.7,55.15,92,13,4.72,ET,1604282342
26,tasiilaq,65.61,-37.64,28.4,74,0,4.7,GL,1604282342
27,jamestown,42.1,-79.24,35.01,92,90,13.87,US,1604282342
28,mahebourg,-20.41,57.7,64.4,100,20,4.7,MU,1604282342
29,katsuura,35.13,140.3,68.0,93,75,14.99,JP,1604282343
30,ilulissat,69.22,-51.1,19.4,67,100,6.93,GL,1604282343
31,bluff,-46.6,168.33,57.0,61,53,11.01,NZ,1604282176
32,yellowknife,62.46,-114.35,12.2,85,75,18.34,CA,1604282343
33,suruc,36.98,38.42,64.4,31,75,6.93,TR,1604282344
34,bethel,41.37,-73.41,48.2,81,90,11.41,US,1604282344
35,upernavik,72.79,-56.15,16.47,92,99,3.4,GL,1604282344
36,pisco,-13.7,-76.22,64.4,82,90,14.99,PE,1604282344
37,cidreira,-30.18,-50.21,61.63,65,3,6.08,BR,1604282345
38,nishihara,26.18,127.76,80.6,65,40,11.41,JP,1604282178
39,castro,-24.79,-50.01,48.94,97,24,7.38,BR,1604282345
40,atuona,-9.8,-139.03,77.54,78,83,13.38,PF,1604282345
41,hangu,39.25,117.79,53.6,18,0,20.13,CN,1604282346
42,huarmey,-10.07,-78.15,61.48,85,63,7.05,PE,1604282346
43,saskylakh,71.92,114.08,-8.32,89,91,10.54,RU,1604282346
44,lebu,-37.62,-73.65,52.77,95,74,8.37,CL,1604282346
45,lorengau,-2.02,147.27,87.22,64,38,5.06,PG,1604282347
46,dhidhdhoo,6.88,73.1,82.6,67,10,4.88,MV,1604282347
47,kampong thum,12.71,104.89,80.56,72,62,6.06,KH,1604282347
48,norman wells,65.28,-126.83,5.0,77,75,5.82,CA,1604282154
49,port elizabeth,-33.92,25.57,64.4,88,40,11.41,ZA,1604282348
50,la macarena,2.18,-73.78,71.92,96,87,0.94,CO,1604282348
51,saint-pierre,-21.34,55.48,69.8,56,90,8.05,RE,1604282348
52,hilo,19.73,-155.09,84.2,66,1,5.82,US,1604282272
53,salme,28.04,85.09,59.0,93,20,2.13,NP,1604282349
54,busselton,-33.65,115.33,60.01,88,98,5.08,AU,1604282349
55,khatanga,71.97,102.5,6.55,95,100,6.82,RU,1604282349
56,bredasdorp,-34.53,20.04,64.4,82,100,10.29,ZA,1604282350
57,padang,-0.95,100.35,83.57,63,99,2.46,ID,1604282350
58,cape town,-33.93,18.42,63.0,72,0,8.05,ZA,1604282284
59,lazaro cardenas,17.96,-102.2,80.04,78,16,1.79,MX,1604282350
60,tessalit,20.2,1.01,71.83,24,51,12.73,ML,1604282351
61,xingyi,24.19,102.82,59.92,96,100,3.06,CN,1604282351
62,vaini,-21.2,-175.2,78.8,83,75,10.29,TO,1604282351
63,nedjo,9.5,35.5,58.1,87,74,0.85,ET,1604282351
64,bilibino,68.05,166.44,9.43,93,100,1.21,RU,1604282352
65,finschhafen,-6.6,147.87,85.87,65,1,5.14,PG,1604282352
66,les cayes,18.2,-73.75,78.96,80,99,5.3,HT,1604282352
67,angouleme,45.65,0.15,60.8,82,0,3.36,FR,1604282353
68,vostok,46.49,135.88,34.14,87,50,5.41,RU,1604282353
69,adrar,20.5,-10.07,77.41,18,100,9.75,MR,1604282055
70,xai-xai,-25.05,33.64,67.78,86,40,2.98,MZ,1604282353
71,portland,45.52,-122.68,59.0,48,0,1.99,US,1604281967
72,codrington,-38.27,141.97,73.96,63,5,9.91,AU,1604282354
73,east london,-33.02,27.91,64.09,83,45,14.09,ZA,1604282354
74,ponta do sol,32.67,-17.1,68.0,82,40,4.7,PT,1604282355
75,new norfolk,-42.78,147.06,77.0,31,100,4.0,AU,1604282355
76,bathsheba,13.22,-59.52,82.4,78,40,21.92,BB,1604282355
77,severo-kurilsk,50.68,156.12,44.11,72,19,10.69,RU,1604282355
78,provideniya,64.38,-173.3,26.6,63,0,6.71,RU,1604282356
79,mecca,21.43,39.83,73.63,70,0,1.77,SA,1604282167
80,thompson,55.74,-97.86,21.2,100,75,3.36,CA,1604282356
81,akdepe,42.06,59.38,39.2,48,0,6.93,TM,1604282356
82,yining,29.04,114.56,63.55,74,76,2.21,CN,1604282357
83,atar,20.52,-13.05,79.79,18,100,7.78,MR,1604282295
84,north bend,43.41,-124.22,55.99,87,1,3.13,US,1604282357
85,mayumba,-3.43,10.66,76.87,89,100,3.18,GA,1604282357
86,mackay,-21.15,149.2,86.0,66,2,14.99,AU,1604282358
87,zhangye,38.93,100.45,45.16,48,0,1.88,CN,1604282295
88,torrington,41.8,-73.12,42.01,93,92,5.99,US,1604282358
89,saint george,37.1,-113.58,71.6,11,1,3.36,US,1604282114
90,kandrian,-6.22,149.55,85.53,70,45,6.24,PG,1604282295
91,chuy,-33.7,-53.46,52.92,85,0,4.81,UY,1604282359
92,tubuala,9.52,-79.03,77.0,94,40,5.82,PA,1604282359
93,nanortalik,60.14,-45.24,32.02,89,0,39.35,GL,1604282359
94,kargil,34.57,76.1,29.17,82,0,0.29,IN,1604282360
95,butaritari,3.07,172.79,82.24,77,66,9.89,KI,1604282360
96,comodoro rivadavia,-45.87,-67.5,66.2,63,0,4.14,AR,1604282360
97,saryozek,44.36,77.98,36.63,69,20,2.17,KZ,1604282360
98,vao,-22.67,167.48,74.71,82,100,15.73,NC,1604282361
99,muzhi,65.37,64.67,23.41,93,94,12.59,RU,1604282361
100,kahului,20.89,-156.47,87.8,55,40,10.29,US,1604282269
101,maneadero,31.72,-116.57,64.0,86,0,1.99,MX,1604282361
102,victoria,22.29,114.16,79.0,62,100,10.45,HK,1604282241
103,arys,42.43,68.8,41.0,30,0,8.95,KZ,1604282362
104,kruisfontein,-34.0,24.73,64.0,82,20,1.99,ZA,1604282362
105,sao felix do xingu,-6.64,-51.99,72.93,92,100,3.24,BR,1604282362
106,ridgecrest,35.62,-117.67,69.01,10,43,3.0,US,1604282363
107,kavaratti,10.57,72.64,81.0,71,0,1.74,IN,1604282363
108,carnarvon,-24.87,113.63,71.6,56,40,16.11,AU,1604282114
109,cap-aux-meules,47.38,-61.86,48.2,87,100,19.46,CA,1604282363
110,angoche,-16.23,39.91,76.53,85,34,5.61,MZ,1604282363
111,lima,-12.04,-77.03,62.6,82,75,11.41,PE,1604282066
112,san carlos de bariloche,-41.15,-71.31,64.4,42,0,11.41,AR,1604282364
113,senador jose porfirio,-2.59,-51.95,80.04,64,100,1.34,BR,1604282364
114,praia,14.92,-23.51,77.0,83,20,6.93,CV,1604282364
115,georgetown,5.41,100.34,80.6,88,20,3.36,MY,1604282139
116,saint-philippe,-21.36,55.77,69.8,56,90,8.05,RE,1604282365
117,avarua,-21.21,-159.78,78.8,83,90,14.99,CK,1604282365
118,bambous virieux,-20.34,57.76,68.0,100,20,4.7,MU,1604282365
119,kaspiyskiy,45.39,47.37,51.12,53,54,5.84,RU,1604282366
120,faanui,-16.48,-151.75,80.42,79,0,18.92,PF,1604282366
121,ngunguru,-35.62,174.5,75.0,72,100,13.0,NZ,1604282366
122,qaanaaq,77.48,-69.36,2.79,74,0,6.31,GL,1604282367
123,constitucion,-35.33,-72.42,51.78,90,33,7.0,CL,1604282156
124,bontang,0.13,117.5,80.89,78,100,10.4,ID,1604282367
125,venado tuerto,-33.75,-61.97,61.0,66,0,8.01,AR,1604282367
126,grindavik,63.84,-22.43,35.6,74,75,8.05,IS,1604282368
127,tuktoyaktuk,69.45,-133.04,14.0,85,90,12.75,CA,1604282368
128,vytegra,61.01,36.45,29.98,95,0,7.83,RU,1604282368
129,labuhan,-6.88,112.21,83.7,70,100,6.53,ID,1604282369
130,airai,-8.93,125.41,79.03,39,98,4.56,TL,1604282369
131,nanzhang,31.78,111.84,66.54,39,34,3.44,CN,1604282369
132,torbay,47.67,-52.73,37.0,74,20,12.75,CA,1604282369
133,kapaa,22.08,-159.32,80.6,78,75,11.41,US,1604282370
134,samarai,-10.62,150.67,83.71,74,69,10.16,PG,1604282370
135,salalah,17.02,54.09,73.4,40,0,3.36,OM,1604282370
136,klaksvik,62.23,-6.59,44.6,87,10,16.11,FO,1604282371
137,poum,-20.23,164.02,79.0,75,45,10.76,NC,1604282371
138,leningradskiy,69.38,178.42,17.01,83,83,4.43,RU,1604282371
139,aksu,41.12,80.26,38.86,63,0,1.41,CN,1604282371
140,souillac,-20.52,57.52,64.4,100,20,4.7,MU,1604282372
141,longyearbyen,78.22,15.64,35.6,69,0,28.86,SJ,1604282372
142,arkhangelsk,64.54,40.54,32.0,97,90,4.47,RU,1604282372
143,erenhot,43.65,111.98,25.32,70,0,12.91,CN,1604282239
144,ribeira grande,38.52,-28.7,63.07,75,57,18.3,PT,1604281995
145,leh,34.17,77.58,29.23,68,0,2.53,IN,1604282373
146,oistins,13.07,-59.53,82.4,78,40,21.92,BB,1604282295
147,taltal,-25.4,-70.48,58.69,67,7,5.35,CL,1604282136
148,berlevag,70.86,29.09,43.41,84,100,34.05,NO,1604282374
149,paveh,35.04,46.36,45.66,56,53,3.74,IR,1604282374
150,hobyo,5.35,48.53,79.7,77,2,4.09,SO,1604282374
151,sur,22.57,59.53,69.21,34,0,0.67,OM,1604282374
152,namatanai,-3.67,152.43,84.36,71,55,3.18,PG,1604282375
153,nemuro,43.32,145.57,62.6,63,75,18.34,JP,1604282375
154,talnakh,69.49,88.4,19.4,85,75,6.71,RU,1604282375
155,roscommon,53.63,-8.18,44.96,88,100,9.98,IE,1604282375
156,chokurdakh,70.63,147.92,-0.51,93,100,12.08,RU,1604282376
157,kasangulu,-4.59,15.17,73.4,88,75,2.15,CD,1604282376
158,cabo san lucas,22.89,-109.91,79.0,74,0,6.13,MX,1604282376
159,fortuna,40.6,-124.16,54.0,100,1,1.54,US,1604282116
160,geraldton,-28.77,114.6,64.4,68,40,20.8,AU,1604282377
161,valtierrilla,20.53,-101.13,55.99,54,0,3.0,MX,1604282377
162,mar del plata,-38.0,-57.56,60.01,87,0,2.24,AR,1604282377
163,pevek,69.7,170.31,13.93,96,100,8.25,RU,1604282378
164,muros,42.78,-9.06,66.0,92,99,14.0,ES,1604282113
165,alekseyevsk,57.84,108.35,15.6,87,0,4.94,RU,1604282378
166,los arcos,8.63,125.99,89.19,55,82,3.71,PH,1604282378
167,conceicao do araguaia,-8.26,-49.26,75.22,91,100,3.38,BR,1604282235
168,arraial do cabo,-22.97,-42.03,68.43,74,6,17.16,BR,1604282115
169,hamina,60.57,27.2,42.8,75,42,13.87,FI,1604282379
170,kedrovyy,56.17,91.82,37.4,69,0,8.95,RU,1604282380
171,takoradi,4.88,-1.76,77.59,90,67,6.44,GH,1604282150
172,bogorodskoye,56.55,37.88,38.86,91,100,7.72,RU,1604282381
173,almeirim,-1.52,-52.58,82.18,55,85,3.71,BR,1604282381
174,qiyang,26.59,111.85,63.7,56,93,4.72,CN,1604282381
175,tecoanapa,16.52,-98.75,80.85,81,9,5.84,MX,1604282381
176,benghazi,32.12,20.07,69.96,63,24,10.45,LY,1604282381
177,yeppoon,-23.13,150.73,87.8,45,20,8.05,AU,1604282382
178,mendi,-6.18,143.65,68.34,82,82,4.0,PG,1604282382
179,severomuysk,56.15,113.43,-3.55,87,0,2.35,RU,1604282382
180,kudat,6.88,116.85,84.2,74,20,10.29,MY,1604282383
181,cherskiy,68.75,161.3,2.17,92,100,5.61,RU,1604282383
182,uyuni,-20.46,-66.83,48.07,38,0,13.31,BO,1604282383
183,bailieborough,53.92,-6.97,44.01,91,100,4.0,IE,1604282383
184,laguna,38.42,-121.42,71.6,35,1,2.48,US,1604282384
185,deputatskiy,69.3,139.9,-14.4,88,40,5.86,RU,1604282384
186,novaya bryan,51.72,108.27,12.2,78,0,2.24,RU,1604282384
187,laukaa,58.74,29.85,32.68,96,0,5.84,RU,1604282384
188,port alfred,-33.59,26.89,64.69,81,33,17.38,ZA,1604281995
189,mattawa,46.74,-119.9,50.0,39,1,4.7,US,1604282385
190,avera,33.19,-82.53,59.0,87,1,6.93,US,1604282167
191,nome,64.5,-165.41,26.6,63,1,3.36,US,1604282181
192,cravo norte,6.3,-70.2,74.43,93,99,5.61,CO,1604282386
193,santiago del estero,-27.8,-64.26,69.94,36,34,9.35,AR,1604282386
194,karratha,-20.74,116.85,80.62,47,27,13.65,AU,1604282386
195,sitka,57.05,-135.33,51.8,76,90,20.8,US,1604282387
196,vardo,70.37,31.11,45.27,82,98,29.28,NO,1604282295
197,ystad,55.43,13.82,57.2,93,90,18.34,SE,1604282387
198,biak,-0.91,122.88,84.04,65,99,5.37,ID,1604282388
199,ust-kuyga,70.02,135.6,-14.55,87,96,8.3,RU,1604282388
200,anadyr,64.75,177.48,15.8,78,75,4.47,RU,1604282388
201,lompoc,34.64,-120.46,68.0,68,1,4.7,US,1604282388
202,baykit,61.67,96.37,25.32,96,100,5.48,RU,1604282389
203,rundu,-17.93,19.77,73.85,35,26,0.56,NA,1604282389
204,arman,59.7,150.17,32.59,93,100,7.7,RU,1604282389
205,tilichiki,60.47,166.1,29.64,93,88,3.42,RU,1604282166
206,kadoshkino,54.03,44.42,40.23,95,90,6.46,RU,1604282390
207,calama,-22.47,-68.93,55.4,24,0,9.17,CL,1604282390
208,lagoa,39.05,-27.98,62.06,72,65,15.82,PT,1604282390
209,shimoda,34.67,138.95,68.0,82,75,11.41,JP,1604282390
210,caronport,50.45,-105.82,48.2,36,8,12.75,CA,1604282391
211,port antonio,18.18,-76.46,78.8,88,75,17.22,JM,1604282391
212,tupik,54.43,119.93,10.58,78,35,14.14,RU,1604282391
213,clyde river,70.47,-68.59,12.2,78,75,8.05,CA,1604281909
214,voznesenye,61.01,35.48,32.11,93,0,9.44,RU,1604282392
215,kiruna,67.86,20.23,37.4,93,100,14.99,SE,1604282392
216,awbari,26.59,12.78,58.91,59,0,7.14,LY,1604282392
217,mataram,-8.58,116.12,86.0,74,75,4.7,ID,1604282198
218,guerrero negro,27.98,-114.06,70.25,66,0,10.89,MX,1604282393
219,palmer,42.16,-72.33,42.8,81,90,14.99,US,1604282393
220,camacha,33.08,-16.33,68.0,82,20,2.24,PT,1604282393
221,aklavik,68.22,-135.01,12.2,92,89,2.24,CA,1604282394
222,college,64.86,-147.8,0.0,77,20,1.63,US,1604282115
223,owando,-0.48,15.9,70.68,99,100,2.93,CG,1604282394
224,kasli,55.89,60.76,28.29,97,22,4.85,RU,1604282395
225,san policarpo,12.18,125.51,84.72,67,85,4.16,PH,1604282211
226,morro bay,35.37,-120.85,66.99,54,0,1.5,US,1604282395
227,monrovia,6.3,-10.8,78.4,86,5,7.83,LR,1604282140
228,kazerun,29.62,51.65,51.67,46,0,1.57,IR,1604282396
229,san vicente,-26.62,-54.13,59.59,66,0,4.41,AR,1604282396
230,san quintin,30.48,-115.95,66.58,69,0,5.86,MX,1604282179
231,tautira,-17.73,-149.15,84.2,66,40,10.29,PF,1604282396
232,kirksville,40.19,-92.58,35.01,63,1,3.36,US,1604282397
233,solnechnyy,50.72,136.63,37.11,77,17,6.85,RU,1604282397
234,hambantota,6.12,81.12,80.46,77,100,4.38,LK,1604282197
235,minab,27.15,57.08,66.2,72,0,6.93,IR,1604282222
236,kavieng,-2.57,150.8,86.5,63,10,2.3,PG,1604282398
237,tevaitoa,-16.78,-151.5,80.64,79,22,19.66,PF,1604282169
238,balkhash,46.84,74.98,40.24,68,100,2.21,KZ,1604282398
239,molochnoye,59.29,39.68,27.63,98,0,5.12,RU,1604282398
240,bonavista,48.65,-53.11,37.99,74,0,5.82,CA,1604282399
241,ust-kulom,61.69,53.69,27.27,96,70,5.55,RU,1604282399
242,witu,-2.39,40.44,77.0,88,1,4.7,KE,1604282399
243,bria,6.54,21.99,66.88,90,85,3.2,CF,1604282399
244,vanimo,-2.67,141.3,86.52,64,76,6.8,PG,1604282356
245,kizukuri,40.81,140.39,57.99,87,75,11.41,JP,1604282400
246,dezhou,37.45,116.29,58.17,33,0,14.76,CN,1604282255
247,zhigansk,66.77,123.37,1.78,91,100,21.59,RU,1604282401
248,hualmay,-11.1,-77.61,60.84,87,64,8.05,PE,1604282401
249,jinchang,38.5,102.17,44.6,49,0,1.48,CN,1604282402
250,sechura,-5.56,-80.82,63.77,82,98,13.58,PE,1604282114
251,dharchula,29.85,80.53,60.93,37,3,5.59,IN,1604282403
252,broome,42.25,-75.83,35.6,74,90,17.22,US,1604282403
253,lasa,46.62,10.7,48.2,81,75,3.36,IT,1604282404
254,visnes,59.36,5.22,54.0,93,90,21.92,NO,1604282405
255,mehamn,71.04,27.85,42.44,86,100,24.34,NO,1604282406
256,kaitangata,-46.28,169.85,55.0,62,96,18.01,NZ,1604282175
257,tena,-0.98,-77.82,70.93,84,100,2.17,EC,1604282407
258,tiksi,71.69,128.87,-4.94,90,0,6.85,RU,1604282408
259,punta alta,-38.88,-62.07,63.03,52,0,11.95,AR,1604282408
260,ostrovnoy,68.05,39.51,39.0,92,100,23.42,RU,1604282409
261,quatre cocos,-20.21,57.76,68.0,100,20,4.7,MU,1604282176
262,plymouth,41.83,-70.83,53.01,93,90,5.86,US,1604282410
263,sao filipe,14.9,-24.5,78.51,78,100,8.05,CV,1604282249
264,santiago,-33.46,-70.65,64.99,63,0,6.93,CL,1604282410
265,marsa matruh,31.35,27.25,64.4,88,40,6.91,EG,1604282411
266,port-gentil,-0.72,8.78,78.17,87,100,10.36,GA,1604282411
267,hithadhoo,-0.6,73.08,83.16,73,98,8.32,MV,1604282412
268,santa marinella,42.03,11.85,62.01,81,45,1.43,IT,1604282412
269,vila,42.03,-8.16,60.01,95,99,11.99,PT,1604282413
270,pandan niog,6.23,120.56,83.05,78,100,14.56,PH,1604282413
271,ancud,-41.87,-73.82,51.01,87,0,2.24,CL,1604282414
272,sturgeon bay,44.83,-87.38,32.0,87,1,14.99,US,1604282392
273,progreso,21.28,-89.67,75.99,78,5,6.93,MX,1604282414
274,marmaris,36.85,28.27,68.0,62,0,8.05,TR,1604282414
275,huercal-overa,37.39,-1.95,59.0,58,0,7.0,ES,1604282415
276,raudeberg,61.99,5.14,46.99,84,100,24.56,NO,1604282415
277,meulaboh,4.14,96.13,78.84,86,100,4.43,ID,1604282416
278,norton,-17.88,30.7,61.0,70,0,8.01,ZW,1604282416
279,batesville,35.77,-91.64,51.8,29,1,7.63,US,1604282416
280,darhan,49.49,105.92,23.09,76,0,5.91,MN,1604282417
281,arona,28.1,-16.68,73.4,40,0,26.4,ES,1604282417
282,soyo,-6.13,12.37,77.49,88,100,5.06,AO,1604282417
283,bac lieu,9.29,105.72,82.74,78,100,8.39,VN,1604282418
284,kieta,-6.22,155.63,86.16,60,2,4.05,PG,1604282418
285,aykhal,66.0,111.5,6.8,84,0,8.95,RU,1604282418
286,kant,27.8,79.8,64.27,29,0,5.14,IN,1604282418
287,richards bay,-28.78,32.04,64.15,95,100,8.37,ZA,1604282419
288,maridi,4.92,29.47,68.47,93,99,3.56,SS,1604282419
289,cooma,-36.23,149.13,60.8,63,86,8.05,AU,1604282419
290,le port,-20.94,55.29,66.2,63,75,9.17,RE,1604282420
291,sinnamary,5.38,-52.95,80.85,80,92,10.45,GF,1604282420
292,saint-augustin,51.23,-58.65,38.43,78,100,18.21,CA,1604282420
293,norman,35.22,-97.44,53.6,40,1,4.7,US,1604282402
294,esperance,-33.87,121.9,75.2,73,91,12.75,AU,1604282190
295,kosh-agach,50.0,88.67,20.35,82,42,0.92,RU,1604282421
296,natal,-5.79,-35.21,80.6,83,75,9.17,BR,1604282421
297,itarema,-2.92,-39.92,79.47,81,24,12.12,BR,1604282421
298,vila do maio,15.13,-23.22,77.0,83,20,6.93,CV,1604282422
299,san jeronimo,-11.95,-75.28,54.21,67,100,3.04,PE,1604282422
300,eregli,37.51,34.05,42.87,75,0,2.24,TR,1604282422
301,waingapu,-9.66,120.26,86.63,60,41,11.25,ID,1604282199
302,verkhnevilyuysk,63.45,120.32,5.22,88,41,8.68,RU,1604282423
303,san carlos,9.66,-68.58,74.55,95,100,2.28,VE,1604282150
304,sola,-13.88,167.55,81.09,83,41,17.52,VU,1604282424
305,inhambane,-23.86,35.38,69.8,78,74,6.49,MZ,1604282407
306,port-cartier,50.03,-66.87,39.0,93,100,4.7,CA,1604282424
307,kolokani,13.57,-8.03,75.72,24,12,5.06,ML,1604282424
308,kisanga,-7.44,37.7,71.76,88,2,2.46,TZ,1604282425
309,bubaque,11.28,-15.83,83.19,78,0,15.93,GW,1604282425
310,port lincoln,-34.73,135.87,77.25,39,43,13.47,AU,1604282167
311,krasnoselkup,65.7,82.47,21.42,97,100,15.52,RU,1604282426
312,nangomba,-10.9,38.5,72.28,81,40,4.56,TZ,1604282426
313,krasnyy chikoy,50.36,108.75,15.15,86,0,3.4,RU,1604282426
314,isangel,-19.55,169.27,86.0,66,75,11.41,VU,1604282427
315,utica,43.1,-75.23,41.0,75,90,17.22,US,1604282427
316,vila velha,-20.33,-40.29,69.8,83,75,17.22,BR,1604282195
317,pundaguitan,6.37,126.17,84.16,71,100,6.8,PH,1604282428
318,biu,10.61,12.19,71.19,28,52,8.63,NG,1604282428
319,aripuana,-9.17,-60.63,71.65,98,100,2.46,BR,1604282429
320,praia da vitoria,38.73,-27.07,62.6,82,75,16.06,PT,1604282429
321,verkhoyansk,67.54,133.38,-11.24,87,89,2.82,RU,1604282429
322,port hardy,50.7,-127.42,51.8,76,75,3.36,CA,1604282430
323,belize,17.25,-88.75,72.0,89,84,1.59,BZ,1604282375
324,pemangkat,1.17,108.97,82.36,76,100,3.29,ID,1604282240
325,pitimbu,-7.47,-34.81,78.8,83,75,6.93,BR,1604282431
326,kyren,51.68,102.14,24.58,85,4,0.65,RU,1604282431
327,lubaczow,50.16,23.12,39.0,99,95,4.83,PL,1604282431
328,sfantu gheorghe,45.87,25.78,32.0,81,1,1.92,RO,1604282432
329,san ramon,37.78,-121.98,73.4,25,1,0.81,US,1604282404
330,cervo,43.67,-7.41,69.01,1,100,12.24,ES,1604282432
331,vilyuysk,63.76,121.62,3.06,91,34,8.97,RU,1604282432
332,dubbo,-32.25,148.62,75.2,41,40,10.29,AU,1604282230
333,alugan,12.22,125.48,84.9,67,95,4.09,PH,1604282433
334,damghan,36.17,54.35,52.65,41,78,1.52,IR,1604282433
335,bengkulu,-3.8,102.27,79.47,81,100,1.07,ID,1604282434
336,port macquarie,-31.43,152.92,66.99,93,75,10.29,AU,1604282434
337,edson,53.58,-116.44,51.8,40,90,4.7,CA,1604282434
338,sundumbili,-29.13,31.4,60.8,93,90,6.93,ZA,1604282434
339,likasi,-10.98,26.73,62.69,60,58,2.08,CD,1604282435
340,naze,28.37,129.48,80.6,83,20,3.36,JP,1604282436
341,constantine,36.37,6.61,50.0,87,0,2.24,DZ,1604282436
342,fuling,29.7,107.39,56.16,88,100,1.63,CN,1604282271
343,bose,45.46,8.01,48.99,95,100,1.12,IT,1604282436
344,nouadhibou,20.93,-17.03,73.4,56,100,12.75,MR,1604282437
345,kerchevskiy,59.95,56.29,26.4,96,0,3.42,RU,1604282437
346,monteagudo,-19.82,-63.98,60.71,47,15,3.09,BO,1604282437
347,hasaki,35.73,140.83,68.0,82,75,12.75,JP,1604282438
348,uige,-7.61,15.06,66.4,96,100,1.39,AO,1604282438
349,abha,18.22,42.51,57.2,34,0,2.08,SA,1604282438
350,lavrentiya,65.58,-171.0,22.66,86,23,6.02,RU,1604282439
351,sompeta,18.93,84.6,80.64,72,46,4.38,IN,1604282439
352,luderitz,-26.65,15.16,61.09,68,100,5.61,NA,1604282439
353,coihaique,-45.58,-72.07,57.2,54,0,3.36,CL,1604282439
354,lamar,33.67,-95.58,53.6,54,1,5.82,US,1604282440
355,shache,38.42,77.24,36.91,70,38,1.83,CN,1604282440
356,umm kaddadah,13.6,26.69,78.37,25,18,22.28,SD,1604282440
357,sawang daen din,17.48,103.46,81.0,67,33,6.44,TH,1604282441
358,okha,53.57,142.95,43.11,97,100,16.8,RU,1604282441
359,joshimath,30.57,79.57,52.25,40,0,3.91,IN,1604282441
360,boyuibe,-20.42,-63.28,65.88,39,0,5.17,BO,1604282442
361,santa maria,-29.68,-53.81,64.4,68,0,12.75,BR,1604282238
362,caravelas,-17.71,-39.25,71.89,84,100,10.67,BR,1604282442
363,moranbah,-22.0,148.05,90.18,28,0,13.2,AU,1604282443
364,kollam,8.88,76.6,80.6,83,20,3.29,IN,1604282228
365,tagusao,9.19,117.81,83.32,75,100,13.22,PH,1604282443
366,poli,-3.33,36.8,69.8,100,75,9.17,TZ,1604282444
367,yumen,40.28,97.2,43.09,53,0,3.42,CN,1604282444
368,vizinga,61.07,50.1,25.97,97,0,3.29,RU,1604282444
369,verkhniy avzyan,53.53,57.54,29.82,97,12,2.73,RU,1604282444
370,challapata,-18.9,-66.77,51.76,40,10,4.41,BO,1604282445
371,bras-panon,-21.0,55.68,66.99,63,75,9.17,RE,1604282445
372,kapit,2.02,112.93,87.06,61,100,2.73,MY,1604282445
373,talara,-4.58,-81.27,63.75,88,91,13.4,PE,1604282349
374,beyneu,45.32,55.2,47.88,50,7,14.29,KZ,1604282446
375,saldanha,-33.01,17.94,64.4,63,0,3.36,ZA,1604282387
376,hamilton,39.18,-84.53,39.2,44,90,11.41,US,1604282406
377,balabac,7.99,117.06,84.06,75,100,13.8,PH,1604282447
378,borovoy,55.43,86.08,32.0,96,0,11.18,RU,1604282447
379,kui buri,12.08,99.85,82.4,78,20,3.36,TH,1604282448
380,landskrona,55.87,12.83,57.0,97,100,1.01,SE,1604282448
381,havre-saint-pierre,50.23,-63.6,41.0,80,90,16.11,CA,1604282448
382,omutninsk,58.67,52.19,26.69,97,0,1.83,RU,1604282449
383,tura,25.52,90.22,73.6,91,97,1.39,IN,1604282449
384,sao joao da barra,-21.64,-41.05,67.42,81,82,17.27,BR,1604282449
385,starogard gdanski,53.96,18.53,48.0,100,99,10.98,PL,1604282450
386,hofn,64.25,-15.21,36.32,75,0,14.99,IS,1604282450
387,ornskoldsvik,63.29,18.72,46.4,100,100,20.8,SE,1604282450
388,ahuimanu,21.44,-157.84,82.4,61,40,8.05,US,1604282450
389,lipin bor,60.26,37.98,28.78,97,15,6.62,RU,1604282451
390,hammerfest,70.66,23.68,44.6,75,0,47.2,NO,1604282451
391,gizo,-8.1,156.84,85.68,68,12,1.43,SB,1604282451
392,glushkovo,51.34,34.63,44.62,91,47,7.29,RU,1604282452
393,narsaq,60.92,-46.05,24.8,68,0,3.36,GL,1604282452
394,dandong,40.13,124.39,47.93,44,0,6.2,CN,1604282222
395,sanford,28.8,-81.27,73.4,94,90,9.17,US,1604282345
396,bischheim,48.62,7.76,64.0,77,90,12.75,FR,1604282453
397,cibitoke,-2.88,29.25,63.72,77,100,3.8,BI,1604282454
398,gimli,50.63,-96.99,33.8,64,95,17.22,CA,1604282454
399,brae,60.4,-1.35,50.0,81,89,35.57,GB,1604282192
400,cockburn town,21.46,-71.14,81.79,77,98,17.65,TC,1604282454
401,george,-33.96,22.46,55.4,100,0,3.36,ZA,1604282455
402,teguldet,57.31,88.17,34.39,96,100,10.36,RU,1604282455
403,ratnagiri,16.98,73.3,77.29,72,7,4.81,IN,1604282456
404,swan river,52.11,-101.27,44.6,48,81,14.99,CA,1604282456
405,acapulco,16.86,-99.89,80.82,77,80,5.79,MX,1604282198
406,demyansk,57.64,32.47,37.33,87,94,5.77,RU,1604282456
407,yinchuan,38.47,106.27,43.88,50,0,3.89,CN,1604282368
408,north platte,41.12,-100.77,37.4,59,1,8.05,US,1604282196
409,urumqi,43.8,87.6,37.4,55,0,4.47,CN,1604282457
410,smithers,54.78,-127.17,50.0,81,75,5.82,CA,1604282457
411,el alto,-4.27,-81.21,61.48,93,84,14.9,PE,1604282458
412,kudahuvadhoo,2.67,72.89,82.33,73,48,6.2,MV,1604282458
413,ponta delgada,37.73,-25.67,62.6,82,75,10.29,PT,1604282344
414,labuan,5.28,115.24,84.2,74,20,8.05,MY,1604282459
415,noumea,-22.28,166.46,88.0,45,90,8.05,NC,1604282169
416,margate,51.38,1.39,63.0,85,100,5.99,GB,1604282459
417,nobres,-14.72,-56.33,78.58,65,93,1.9,BR,1604282459
418,bandarbeyla,9.49,50.81,76.24,77,0,17.54,SO,1604282459
419,isla mujeres,21.23,-86.73,77.0,88,40,10.29,MX,1604282460
420,rondonopolis,-16.47,-54.64,75.94,62,86,5.03,BR,1604282461
421,mananara,-16.17,49.77,66.06,74,69,4.09,MG,1604282461
422,gorontalo,0.54,123.06,87.78,52,100,7.45,ID,1604282462
423,rajgarh,28.63,75.38,67.46,24,0,8.25,IN,1604282232
424,wagar,16.15,36.2,77.2,72,29,7.02,SD,1604282462
425,husavik,66.04,-17.34,39.2,51,0,5.82,IS,1604282396
426,sao gabriel da cachoeira,-0.13,-67.09,71.11,98,57,2.42,BR,1604282463
427,santa maria do suacui,-18.19,-42.41,64.56,97,100,6.2,BR,1604282463
428,vestmannaeyjar,63.44,-20.27,37.74,75,7,16.73,IS,1604282463
429,pimentel,-6.84,-79.93,61.38,88,94,11.74,PE,1604282464
430,marsh harbour,26.54,-77.06,79.92,83,0,7.7,BS,1604282401
431,waharoa,-37.77,175.77,73.99,63,100,4.09,NZ,1604282464
432,ixtapa,20.7,-105.2,76.48,85,11,0.51,MX,1604282412
433,greensburg,40.3,-79.54,35.6,55,75,21.92,US,1604282427
434,keita,14.76,5.77,76.03,21,0,10.29,NE,1604282465
435,maoming,21.65,110.9,77.79,71,97,2.37,CN,1604282466
436,haukipudas,65.18,25.35,44.6,81,100,13.87,FI,1604282466
437,lokosovo,61.13,74.82,26.17,97,68,11.23,RU,1604282295
438,severo-yeniseyskiy,60.37,93.04,30.65,98,100,13.06,RU,1604282467
439,byron bay,-28.65,153.62,73.99,64,40,24.16,AU,1604282467
440,lunglei,22.88,92.73,70.95,95,52,1.63,IN,1604282467
441,dingle,11.0,122.67,82.98,81,72,13.02,PH,1604282462
442,snezhnogorsk,69.19,33.25,39.2,93,75,6.71,RU,1604282468
443,imbituba,-28.24,-48.67,62.6,82,40,4.7,BR,1604282468
444,port moresby,-9.44,147.18,86.14,68,100,4.68,PG,1604282242
445,sulphur springs,33.14,-95.6,55.99,62,1,6.93,US,1604282469
446,kaitong,44.81,123.15,35.38,64,85,19.84,CN,1604282469
447,marystown,47.17,-55.15,44.01,100,96,5.01,CA,1604282175
448,rawson,-43.3,-65.1,75.07,25,100,24.87,AR,1604282248
449,malinyi,-8.93,36.13,73.08,83,70,3.96,TZ,1604282470
450,ivankiv,50.94,29.89,44.6,100,100,6.71,UA,1604282470
451,harnosand,62.63,17.94,48.2,93,100,20.8,SE,1604282470
452,pauini,-7.71,-66.98,73.63,93,21,1.39,BR,1604282471
453,cassilandia,-19.11,-51.73,70.65,56,0,6.53,BR,1604282471
454,flinders,-34.58,150.86,72.0,64,95,4.0,AU,1604282471
455,magadan,59.57,150.8,31.64,93,100,10.63,RU,1604282472
456,baglung,28.27,83.59,65.91,49,0,4.63,NP,1604282472
457,alta floresta,-9.88,-56.09,70.57,98,100,1.99,BR,1604282426
458,tuatapere,-46.13,167.68,57.0,61,25,10.0,NZ,1604282473
459,trofors,65.53,13.41,51.8,66,100,28.86,NO,1604282473
460,falam,22.92,93.68,66.07,86,38,1.14,MM,1604282473
461,hvide sande,56.0,8.13,59.0,73,100,11.99,DK,1604282473
462,fort nelson,58.81,-122.7,14.0,85,90,9.17,CA,1604282474
463,odweyne,9.41,45.06,67.8,25,0,10.92,SO,1604282474
464,cayenne,4.93,-52.33,77.0,94,96,6.93,GF,1604282474
465,high level,58.52,-117.14,26.6,86,90,13.87,CA,1604282475
466,manzanillo,20.34,-77.12,77.31,83,100,11.72,CU,1604282475
467,oussouye,12.48,-16.55,80.29,79,0,6.87,SN,1604282475
468,camana,-16.62,-72.71,64.42,79,98,6.55,PE,1604282373
469,grand gaube,-20.01,57.66,68.0,69,67,3.0,MU,1604282476
470,sungaipenuh,-2.08,101.38,72.23,77,97,3.22,ID,1604282442
471,sioux lookout,50.1,-91.92,24.8,58,75,10.29,CA,1604282476
472,laureles,26.11,-97.49,72.0,64,1,6.93,US,1604282477
473,victor harbor,-35.57,138.62,80.01,50,26,6.46,AU,1604282477
474,tezu,27.92,96.17,75.58,65,79,1.1,IN,1604282477
475,taoudenni,22.68,-3.98,76.37,19,100,15.32,ML,1604282477
476,rio grande,-32.03,-52.1,52.0,95,0,4.34,BR,1604282478
477,hami,42.8,93.45,45.54,47,5,7.29,CN,1604282478
478,malayal,7.21,121.94,84.2,79,40,6.93,PH,1604282478
479,ola,59.58,151.28,32.04,92,100,8.97,RU,1604282479
480,majene,-3.54,118.97,85.8,63,100,7.18,ID,1604282479
481,mindelo,16.89,-24.98,77.0,73,20,17.22,CV,1604282479
482,udankudi,8.43,78.02,78.8,88,20,2.46,IN,1604282380
483,sokur,55.21,83.32,35.6,95,0,8.95,RU,1604282480
484,sibolga,1.74,98.78,80.01,80,100,2.77,ID,1604282480
485,santarem,-2.44,-54.71,77.0,88,20,1.12,BR,1604282480
486,taunggyi,20.78,97.03,68.11,93,23,2.08,MM,1604282481
487,garachine,8.06,-78.36,78.35,84,96,12.39,PA,1604282481
488,anloga,5.79,0.9,79.72,86,3,11.97,GH,1604282482
489,tungor,53.38,142.96,43.43,97,100,14.65,RU,1604282482
490,saint-georges,12.06,-61.75,77.0,94,75,17.22,GD,1604282482
491,verkhnyaya inta,65.98,60.31,25.57,97,100,15.23,RU,1604282483
492,tazovskiy,67.47,78.7,20.46,97,100,14.63,RU,1604282420
493,te anau,-45.42,167.72,60.64,39,17,0.89,NZ,1604282483
494,bardiyah,31.76,25.09,67.73,61,14,6.24,LY,1604282483
495,tirumullaivasal,11.23,79.83,79.32,78,0,4.83,IN,1604282484
496,waipawa,-41.41,175.52,55.99,93,100,11.41,NZ,1604282484
497,korsakov,46.63,142.78,53.6,81,75,6.71,RU,1604282485
498,champerico,14.3,-91.92,68.0,96,98,2.48,GT,1604282485
499,umm lajj,25.02,37.27,77.43,69,0,5.84,SA,1604282200
500,coahuayana,18.73,-103.68,78.19,79,0,0.92,MX,1604282209
501,alice springs,-23.7,133.88,89.6,11,0,12.75,AU,1604282486
502,mana,5.66,-53.78,81.16,79,100,9.93,GF,1604282487
503,edd,13.93,41.69,82.04,43,0,13.11,ER,1604282487
504,okhotsk,59.38,143.3,22.35,87,100,18.9,RU,1604282487
505,chissamba,-12.17,17.33,65.3,70,1,3.09,AO,1604282488
506,nizwa,22.93,57.53,59.31,32,0,2.35,OM,1604282488
507,punta cardon,11.66,-70.22,84.27,75,100,13.0,VE,1604282488
508,dali,25.7,100.18,60.76,87,100,2.55,CN,1604282488
509,sao sebastiao,-23.76,-45.41,62.19,76,48,0.51,BR,1604282489
510,roebourne,-20.78,117.13,81.68,45,43,12.93,AU,1604282464
511,van wert,40.87,-84.58,35.01,87,75,9.17,US,1604282489
512,shelburne,44.08,-80.2,34.0,100,91,23.69,CA,1604282405
513,talaya,61.38,152.75,23.94,92,100,4.56,RU,1604282490
514,dolinsk,47.35,142.8,53.6,81,75,6.71,RU,1604282490
515,lufilufi,-13.87,-171.6,86.0,74,75,18.66,WS,1604282491
516,san isidro,-12.12,-77.05,62.6,82,75,11.41,PE,1604282491
517,tarauaca,-8.16,-70.77,74.52,71,98,1.48,BR,1604282491
518,galle,6.04,80.22,80.46,76,30,5.03,LK,1604282403
519,kelvington,52.17,-103.53,46.4,42,87,12.75,CA,1604282492
520,marzuq,14.4,46.47,57.04,36,0,0.54,YE,1604282492
521,batticaloa,7.71,81.69,80.28,75,73,5.82,LK,1604282492
522,gravdal,68.12,13.5,50.13,76,100,25.1,NO,1604282492
523,birao,10.28,22.79,73.06,43,20,1.43,CF,1604282493
524,jurado,7.11,-77.76,77.25,85,100,5.59,CO,1604282493
525,mandan,46.83,-100.89,42.8,60,1,12.75,US,1604282493
526,thinadhoo,0.53,72.93,83.35,71,100,6.78,MV,1604282493
527,zhuji,29.72,120.24,64.4,77,40,6.71,CN,1604282494
528,ler,8.3,30.14,73.38,75,73,2.84,SS,1604282494
529,ahipara,-35.17,173.17,71.19,69,100,8.37,NZ,1604282494
530,kabalo,-6.05,26.92,70.38,86,94,1.7,CD,1604282495
531,eskil,38.4,33.41,46.26,57,12,7.0,TR,1604282495
532,paamiut,61.99,-49.67,25.56,93,57,5.68,GL,1604282495
533,kropotkin,45.44,40.58,57.0,76,100,12.84,RU,1604282496
534,lohja,60.25,24.07,46.99,86,100,11.01,FI,1604282496
535,solomenskoye,44.22,44.35,52.86,80,100,5.35,RU,1604282496
536,humaita,-7.51,-63.02,74.41,97,91,2.39,BR,1604282497
537,havelock,34.88,-76.9,61.0,82,1,12.75,US,1604282497
538,rancho palos verdes,33.74,-118.39,72.0,40,40,12.75,US,1604282211
539,lucapa,-8.42,20.74,63.55,96,33,0.25,AO,1604282497
540,mama,58.31,112.9,8.89,83,0,3.98,RU,1604282498
541,wairoa,-39.03,177.37,64.99,79,100,4.0,NZ,1604282498
542,rudbar,30.15,62.6,47.68,52,0,2.26,AF,1604282498
543,trinidad,-14.83,-64.9,76.21,39,100,3.62,BO,1604282498
544,zhanaozen,43.3,52.8,55.78,32,0,12.77,KZ,1604282499
545,martapura,-3.42,114.85,75.94,94,100,1.36,ID,1604282499
546,mahibadhoo,3.78,72.97,82.4,71,0,5.55,MV,1604282499
547,muli,2.92,73.57,82.26,71,21,4.79,MV,1604282500
548,poya,-21.35,165.15,82.72,58,99,4.81,NC,1604282500
549,baghdad,33.34,44.4,68.0,37,0,10.29,IQ,1604282500
