,City,Lat,Lng,Max Temp,Humidity,Cloudiness,Wind Speed,Country,Date
0,hermanus,-34.42,19.23,52.0,71,0,1.01,ZA,1604108391
1,motema,8.6,-11.03,70.2,85,39,0.47,SL,1604108981
2,gamba,-2.65,10.0,75.13,93,100,4.85,GA,1604108982
3,kununurra,-15.77,128.73,95.0,44,92,4.7,AU,1604108982
4,maceio,-9.67,-35.74,75.2,94,75,4.7,BR,1604108568
5,butaritari,3.07,172.79,82.62,75,90,19.57,KI,1604108388
6,talnakh,69.49,88.4,14.0,78,100,29.08,RU,1604108479
7,hobart,-42.88,147.33,71.01,59,40,11.41,AU,1604108481
8,altay,47.87,88.12,24.55,83,0,1.59,CN,1604108983
9,leningradskiy,69.38,178.42,19.15,94,74,17.52,RU,1604108874
10,laguna,38.42,-121.42,73.4,32,1,0.87,US,1604108699
11,jamestown,42.1,-79.24,36.0,94,90,8.05,US,1604108396
12,barrow,71.29,-156.79,8.6,84,75,8.05,US,1604108605
13,ambilobe,-13.2,49.05,69.06,71,24,6.71,MG,1604108984
14,aksu,41.12,80.26,41.72,62,33,1.86,CN,1604108564
15,sakaiminato,35.55,133.23,59.0,67,20,2.24,JP,1604108985
16,kholodnyy,62.72,147.95,13.23,93,100,3.65,RU,1604108985
17,vila,42.03,-8.16,54.0,94,9,1.99,PT,1604108985
18,mataura,-46.19,168.86,53.01,97,100,14.0,NZ,1604108525
19,pisco,-13.7,-76.22,62.6,88,90,6.93,PE,1604108611
20,puerto carreno,6.19,-67.49,80.6,86,90,4.27,CO,1604108986
21,new norfolk,-42.78,147.06,71.01,37,15,4.0,AU,1604108526
22,puerto escondido,15.85,-97.07,78.8,54,75,5.82,MX,1604108656
23,saint george,37.1,-113.58,69.8,15,1,3.36,US,1604108668
24,rikitea,-23.12,-134.97,76.17,63,0,0.6,PF,1604108478
25,faya,18.39,42.45,57.2,35,0,1.1,SA,1604108569
26,korgen,66.08,13.82,32.0,90,100,13.87,NO,1604108987
27,birin,26.89,88.07,60.8,93,20,2.24,NP,1604108988
28,tazovskiy,67.47,78.7,22.23,98,100,17.72,RU,1604108830
29,bredasdorp,-34.53,20.04,48.2,81,25,2.51,ZA,1604108480
30,los llanos de aridane,28.66,-17.92,69.8,73,0,6.93,ES,1604108570
31,severo-kurilsk,50.68,156.12,40.26,92,100,37.42,RU,1604108569
32,tiksi,71.69,128.87,7.36,95,100,4.36,RU,1604108526
33,torbay,47.67,-52.73,34.0,64,90,11.41,CA,1604108654
34,adrar,20.5,-10.07,80.62,16,45,9.17,MR,1604108563
35,cape town,-33.93,18.42,57.0,62,0,20.8,ZA,1604108194
36,egvekinot,66.32,-179.17,14.11,84,61,8.99,RU,1604108567
37,qaanaaq,77.48,-69.36,13.86,90,96,5.66,GL,1604108564
38,saint-philippe,-21.36,55.77,66.2,68,46,14.99,RE,1604108554
39,dikson,73.51,80.55,14.23,96,95,27.31,RU,1604108612
40,provideniya,64.38,-173.3,23.23,85,23,7.23,RU,1604108569
41,the valley,18.22,-63.06,82.4,78,40,10.29,AI,1604108991
42,taoudenni,22.68,-3.98,74.01,24,76,11.39,ML,1604108991
43,nikolskoye,59.7,30.79,46.0,93,90,6.71,RU,1604108417
44,upernavik,72.79,-56.15,19.62,96,99,3.83,GL,1604108396
45,atuona,-9.8,-139.03,77.99,74,53,11.43,PF,1604108482
46,port alfred,-33.59,26.89,59.92,65,87,3.8,ZA,1604108480
47,kidal,18.44,1.41,76.28,18,0,12.19,ML,1604108736
48,arawa,-6.21,155.54,84.13,75,76,4.5,PG,1604108993
49,puerto ayora,-0.74,-90.35,69.01,93,82,4.0,EC,1604108610
50,hilo,19.73,-155.09,82.4,74,90,8.05,US,1604108288
51,srednekolymsk,67.45,153.68,6.39,92,100,1.28,RU,1604108993
52,punta arenas,-53.15,-70.92,50.0,66,75,10.29,CL,1604108610
53,kamenka,51.32,42.77,47.52,86,100,7.34,RU,1604108994
54,saint-pierre,-21.34,55.48,66.2,63,90,8.05,RE,1604108440
55,norman wells,65.28,-126.83,12.2,92,90,2.53,CA,1604108480
56,albany,42.6,-73.97,33.01,89,94,3.04,US,1604108483
57,slave lake,55.28,-114.77,30.2,86,90,21.92,CA,1604108995
58,san cristobal,7.77,-72.22,68.25,91,99,1.48,VE,1604108786
59,ribeira grande,38.52,-28.7,68.95,93,100,16.02,PT,1604108481
60,nelson bay,-32.72,152.15,78.8,41,18,17.22,AU,1604108996
61,tuktoyaktuk,69.45,-133.04,5.0,92,75,6.93,CA,1604108482
62,pangody,65.85,74.49,34.21,96,100,14.03,RU,1604108996
63,vaini,-21.2,-175.2,78.8,69,40,13.87,TO,1604108523
64,tasiilaq,65.61,-37.64,33.8,80,100,46.08,GL,1604108546
65,batagay-alyta,67.8,130.41,3.94,93,100,1.32,RU,1604108998
66,lobito,-12.35,13.55,76.1,85,94,6.71,AO,1604108998
67,kapaa,22.08,-159.32,82.4,65,75,5.82,US,1604108526
68,asau,46.43,26.4,42.01,97,100,4.18,RO,1604108998
69,victoria,22.29,114.16,75.0,67,55,3.0,HK,1604108612
70,cidreira,-30.18,-50.21,62.98,69,63,9.6,BR,1604108698
71,kodiak,57.79,-152.41,33.8,64,90,6.93,US,1604108526
72,perth,-31.93,115.83,75.2,60,75,8.05,AU,1604108999
73,vila velha,-20.33,-40.29,75.2,94,90,5.82,BR,1604109000
74,sioux lookout,50.1,-91.92,30.2,80,90,6.93,CA,1604108574
75,saldanha,-33.01,17.94,53.6,66,0,10.29,ZA,1604108697
76,avarua,-21.21,-159.78,75.2,78,93,14.99,CK,1604108523
77,georgetown,5.41,100.34,82.4,83,20,4.7,MY,1604108385
78,ushuaia,-54.8,-68.3,50.0,71,75,18.34,AR,1604108482
79,kungalv,57.87,11.98,50.0,98,99,9.42,SE,1604109001
80,evans,33.53,-82.13,62.6,48,1,8.05,US,1604108903
81,necochea,-38.55,-58.74,50.0,73,0,7.0,AR,1604109002
82,khatanga,71.97,102.5,-10.46,85,0,6.29,RU,1604108653
83,bluff,-46.6,168.33,53.01,97,100,14.0,NZ,1604108481
84,makakilo city,21.35,-158.09,86.0,58,1,14.99,US,1604108700
85,airai,-8.93,125.41,78.98,43,0,2.84,TL,1604108424
86,deutschlandsberg,46.82,15.22,48.99,100,89,2.24,AT,1604109003
87,matara,5.95,80.54,79.9,78,100,6.6,LK,1604108499
88,sivaki,52.63,126.75,29.34,98,100,10.16,RU,1604109004
89,nishihara,26.18,127.76,77.0,50,40,13.87,JP,1604108478
90,bengkulu,-3.8,102.27,82.2,71,95,1.39,ID,1604108354
91,saint anthony,45.02,-93.22,39.99,55,1,6.93,US,1604109004
92,urdoma,61.75,48.54,36.16,94,100,6.58,RU,1604109005
93,cabo san lucas,22.89,-109.91,78.8,57,40,5.82,MX,1604108377
94,hithadhoo,-0.6,73.08,83.64,73,100,9.42,MV,1604108482
95,sitka,57.05,-135.33,44.6,87,90,12.75,US,1604108797
96,goderich,43.75,-81.72,33.8,69,98,5.82,CA,1604109006
97,ossora,59.24,163.07,34.79,82,91,0.83,RU,1604108611
98,tabas,33.6,56.92,55.4,24,0,2.24,IR,1604109006
99,pershotravneve,51.39,28.87,39.02,97,5,5.28,UA,1604109007
100,umm lajj,25.02,37.27,77.13,36,0,4.7,SA,1604108743
101,haines junction,60.75,-137.51,19.4,67,100,5.82,CA,1604109007
102,ivybridge,50.39,-3.92,57.0,98,100,3.0,GB,1604109008
103,aligudarz,33.4,49.69,43.65,52,1,3.0,IR,1604109008
104,ponta do sol,32.67,-17.1,68.0,77,20,13.87,PT,1604108426
105,nizwa,22.93,57.53,61.9,32,0,3.04,OM,1604108568
106,la asuncion,11.03,-63.86,80.73,86,69,12.8,VE,1604109009
107,busselton,-33.65,115.33,73.0,47,100,10.2,AU,1604108387
108,camana,-16.62,-72.71,64.38,77,5,7.23,PE,1604109009
109,hamilton,39.18,-84.53,41.0,93,20,3.36,US,1604108272
110,iracoubo,5.48,-53.2,81.0,84,16,12.86,GF,1604108814
111,miri,4.41,114.01,80.6,88,40,6.93,MY,1604109010
112,arraial do cabo,-22.97,-42.03,70.39,87,100,32.53,BR,1604108567
113,fairbanks,64.84,-147.72,12.2,85,90,3.36,US,1604109011
114,conceicao do coite,-11.56,-39.28,70.92,88,99,9.13,BR,1604109011
115,baruun-urt,46.68,113.28,35.87,74,26,19.3,MN,1604108917
116,longyearbyen,78.22,15.64,17.6,72,40,5.82,SJ,1604108402
117,la fria,8.22,-72.24,75.2,86,27,2.35,VE,1604109012
118,callaguip,18.07,120.49,84.2,66,20,16.11,PH,1604109012
119,luanda,-8.84,13.23,77.0,88,75,5.82,AO,1604108967
120,wenling,28.37,121.36,73.0,62,0,9.13,CN,1604108733
121,kaitangata,-46.28,169.85,57.0,89,100,11.99,NZ,1604108483
122,olafsvik,64.89,-23.71,39.36,85,73,10.42,IS,1604109013
123,viedma,-40.81,-63.0,58.53,33,3,5.7,AR,1604108594
124,harrismith,-28.27,29.13,54.32,87,100,8.93,ZA,1604109014
125,ypsonas,34.69,32.96,66.2,55,0,3.36,CY,1604109014
126,imbituba,-28.24,-48.67,64.4,82,75,8.05,BR,1604109014
127,tura,25.52,90.22,76.78,80,90,2.66,IN,1604109014
128,lebu,-37.62,-73.65,51.46,90,2,12.97,CL,1604108482
129,prado,-17.34,-39.22,75.69,87,28,9.04,BR,1604109015
130,bowen,-20.02,148.23,89.6,49,75,13.87,AU,1604108786
131,saint-paul,-21.01,55.27,66.2,55,20,21.92,RE,1604108829
132,katherine,-14.47,132.27,93.2,38,0,6.93,AU,1604108872
133,puri,19.8,85.85,69.8,88,20,5.82,IN,1604108655
134,williams lake,52.14,-122.14,35.6,80,20,5.82,CA,1604109016
135,khorixas,-20.37,14.97,69.93,59,94,0.51,NA,1604109016
136,salinopolis,-0.61,-47.36,79.56,81,72,11.41,BR,1604109017
137,caravelas,-17.71,-39.25,75.72,84,35,7.43,BR,1604108589
138,nokaneng,-19.67,22.27,72.1,30,0,5.12,BW,1604109017
139,sabha,27.04,14.43,58.41,55,42,9.28,LY,1604109018
140,yuzhno-kurilsk,44.03,145.86,46.58,69,77,22.59,RU,1604109018
141,baixa grande,-11.96,-40.17,72.21,87,100,6.22,BR,1604109018
142,iqaluit,63.75,-68.51,15.8,78,90,8.05,CA,1604108656
143,ilulissat,69.22,-51.1,19.4,73,94,4.7,GL,1604108558
144,liwale,-9.77,37.93,69.64,84,88,2.48,TZ,1604109019
145,yabassi,4.46,9.97,75.2,100,75,2.24,CM,1604109019
146,babahoyo,-1.82,-79.52,77.0,78,75,11.41,EC,1604109020
147,ariquemes,-9.91,-63.04,73.71,93,100,5.86,BR,1604109020
148,east london,-33.02,27.91,62.42,68,100,1.59,ZA,1604108442
149,rabo de peixe,37.8,-25.58,69.8,94,75,17.22,PT,1604109020
150,ulladulla,-35.35,150.47,57.2,100,100,9.17,AU,1604109021
151,narsaq,60.92,-46.05,23.0,73,93,1.12,GL,1604108745
152,san carlos de bariloche,-41.15,-71.31,55.4,30,0,6.93,AR,1604108781
153,pueblo nuevo,23.38,-105.38,58.59,69,100,4.92,MX,1604109022
154,kargasok,59.06,80.86,32.38,98,100,5.84,RU,1604109022
155,kavieng,-2.57,150.8,83.23,74,100,7.43,PG,1604108549
156,grindavik,63.84,-22.43,41.0,86,75,23.04,IS,1604108462
157,saskylakh,71.92,114.08,-2.56,82,5,6.11,RU,1604108610
158,kanker,20.27,81.49,69.08,59,15,0.47,IN,1604109023
159,nagapattinam,10.77,79.83,78.89,76,93,4.92,IN,1604109024
160,esperance,-33.87,121.9,75.2,31,0,25.28,AU,1604108550
161,luderitz,-26.65,15.16,59.2,59,100,26.8,NA,1604108549
162,valparaiso,-33.04,-71.63,53.6,93,90,1.12,CL,1604108886
163,mecca,21.43,39.83,74.12,69,0,1.12,SA,1604108700
164,chuy,-33.7,-53.46,53.38,87,98,5.61,UY,1604108482
165,yumen,40.28,97.2,40.73,60,100,18.05,CN,1604109025
166,edinburg,55.95,-3.2,43.0,93,0,6.93,GB,1604108948
167,ostrovnoy,68.05,39.51,32.92,93,86,17.45,RU,1604108482
168,mount darwin,-16.77,31.58,69.53,64,0,8.03,ZW,1604109026
169,uruzgan,32.83,66.0,33.58,76,0,4.74,AF,1604109026
170,lure,47.75,6.5,42.8,100,56,2.66,FR,1604109027
171,lorengau,-2.02,147.27,84.54,71,87,2.55,PG,1604108526
172,vestmannaeyjar,63.44,-20.27,46.2,80,58,22.73,IS,1604108744
173,nouakchott,18.09,-15.98,75.2,69,0,19.46,MR,1604109027
174,hami,42.8,93.45,39.96,62,0,6.2,CN,1604108551
175,pingliang,35.54,106.69,46.96,49,0,7.29,CN,1604109028
176,beyneu,45.32,55.2,43.52,63,0,15.73,KZ,1604108916
177,guerrero negro,27.98,-114.06,68.88,50,27,9.95,MX,1604109028
178,nakhon si thammarat,8.25,100.0,82.4,88,40,2.24,TH,1604109029
179,langsa,4.47,97.97,78.51,87,100,0.43,ID,1604109029
180,hasaki,35.73,140.83,63.0,45,20,17.22,JP,1604109029
181,gdov,58.74,27.81,44.17,94,85,6.53,RU,1604109029
182,colimes,-1.55,-80.02,77.0,78,75,11.41,EC,1604109030
183,pacific grove,36.62,-121.92,57.2,87,1,3.36,US,1604108551
184,yellowknife,62.46,-114.35,15.01,92,75,4.7,CA,1604108341
185,nome,64.5,-165.41,26.6,58,1,4.7,US,1604108577
186,nemuro,43.32,145.57,48.2,57,40,12.75,JP,1604108524
187,pozo colorado,-23.49,-58.8,67.75,52,73,8.48,PY,1604109031
188,thompson,55.74,-97.86,17.6,72,90,6.93,CA,1604108439
189,fortuna,40.6,-124.16,54.0,87,1,9.17,US,1604108654
190,ilhabela,-23.78,-45.36,67.55,89,100,4.5,BR,1604109032
191,pedernales,18.04,-71.74,81.57,71,100,2.08,DO,1604109032
192,iquitos,-3.75,-73.25,68.9,98,100,3.67,PE,1604109033
193,yerbogachen,61.28,108.01,10.6,93,100,6.91,RU,1604109033
194,villablino,42.94,-6.32,43.0,99,0,1.01,ES,1604109033
195,havelock,34.88,-76.9,57.99,62,1,6.93,US,1604108739
196,bilibino,68.05,166.44,7.03,90,84,1.28,RU,1604109034
197,hovd,48.01,91.64,29.89,78,12,1.77,MN,1604109018
198,faanui,-16.48,-151.75,78.8,79,7,16.73,PF,1604108523
199,cayenne,4.93,-52.33,80.6,94,20,2.24,GF,1604108510
200,bull savanna,17.89,-77.59,77.16,83,71,2.24,JM,1604109034
201,alekseyevsk,57.84,108.35,20.17,92,100,1.01,RU,1604109035
202,tautira,-17.73,-149.15,84.2,62,40,17.22,PF,1604109035
203,corinto,37.94,22.96,61.0,60,4,3.0,GR,1604109035
204,houma,29.6,-90.72,53.01,93,1,5.39,US,1604108857
205,pathein,16.78,94.73,78.85,88,42,10.47,MM,1604109036
206,geraldton,-28.77,114.6,73.4,69,75,10.29,AU,1604108612
207,santiago,-33.46,-70.65,66.2,48,0,10.29,CL,1604108790
208,portland,45.52,-122.68,55.0,69,15,1.01,US,1604108591
209,praya,14.92,-23.51,78.8,69,75,19.46,CV,1604108655
210,hambantota,6.12,81.12,80.29,75,92,6.55,LK,1604109037
211,carnarvon,-24.87,113.63,75.2,64,90,11.41,AU,1604108480
212,sorland,67.67,12.69,44.2,87,100,34.25,NO,1604108698
213,black river,18.03,-77.85,82.4,83,75,6.93,JM,1604109038
214,usinsk,65.99,57.53,33.26,93,100,8.97,RU,1604108992
215,yulara,-25.24,130.99,75.2,16,0,13.87,AU,1604108525
216,margate,51.38,1.39,57.0,83,26,1.99,GB,1604108521
217,gympie,-26.19,152.66,82.99,50,0,4.0,AU,1604109039
218,cherskiy,68.75,161.3,7.38,91,100,5.1,RU,1604108656
219,castro,-24.79,-50.01,52.16,94,100,10.74,BR,1604108478
220,kruisfontein,-34.0,24.73,46.0,93,0,2.17,ZA,1604108567
221,fort nelson,58.81,-122.7,21.2,92,75,0.49,CA,1604109040
222,santo tomas,14.11,121.14,88.0,58,40,10.29,PH,1604109040
223,isangel,-19.55,169.27,80.6,78,75,9.17,VU,1604108581
224,vao,-22.67,167.48,74.37,87,69,14.36,NC,1604109041
225,kanniyakumari,8.08,77.57,80.49,76,93,5.39,IN,1604109011
226,esmeraldas,-19.76,-44.31,71.6,94,75,5.82,BR,1604109041
227,rio muerto,27.42,-110.23,84.2,21,40,6.93,MX,1604109042
228,kedgwick,47.64,-67.34,19.63,96,38,3.47,CA,1604109042
229,kaniama,-7.57,24.18,64.83,97,97,2.08,CD,1604109042
230,ranong,9.97,98.63,78.8,100,40,2.39,TH,1604109043
231,virginia beach,36.85,-75.98,55.0,80,18,1.01,US,1604108530
232,trelew,-43.25,-65.31,63.39,30,0,10.76,AR,1604108743
233,humaita,-7.51,-63.02,75.29,96,85,1.19,BR,1604109043
234,lashio,22.93,97.75,70.92,90,43,0.76,MM,1604108612
235,aguimes,27.91,-15.45,77.0,31,0,4.7,ES,1604109044
236,ozinki,51.18,49.68,44.28,58,100,10.98,RU,1604109044
237,noyabrsk,63.2,75.45,34.52,98,100,10.54,RU,1604109045
238,sungurlu,40.17,34.37,55.29,68,23,5.37,TR,1604109045
239,cabedelo,-6.98,-34.83,77.0,88,20,6.93,BR,1604109045
240,rocha,-34.48,-54.33,44.82,89,89,1.41,UY,1604108726
241,padang,-0.95,100.35,78.8,83,40,9.17,ID,1604108831
242,madinat sittah uktubar,29.82,31.05,71.6,78,40,8.05,EG,1604109046
243,camacha,33.08,-16.33,66.2,82,20,4.7,PT,1604108829
244,takoradi,4.88,-1.76,77.99,87,8,4.79,GH,1604109040
245,sao joao dos patos,-6.5,-43.7,80.37,61,55,2.42,BR,1604109047
246,hofn,64.25,-15.21,45.68,75,0,24.96,IS,1604108742
247,hit,33.64,42.83,58.5,31,0,2.93,IQ,1604109047
248,ahipara,-35.17,173.17,67.21,87,46,13.91,NZ,1604108481
249,beaverlodge,55.22,-119.44,26.6,86,40,10.29,CA,1604109048
250,vardo,70.37,31.11,34.21,87,31,8.1,NO,1604108785
251,dir,35.21,71.88,49.15,35,0,9.46,PK,1604109048
252,christchurch,-43.53,172.63,80.6,36,43,10.29,NZ,1604109041
253,evensk,61.95,159.23,24.98,89,3,3.15,RU,1604109049
254,lerwick,60.15,-1.15,48.2,76,100,14.99,GB,1604108861
255,almenara,-16.18,-40.69,72.5,83,93,2.15,BR,1604109049
256,nenita,12.49,124.8,81.63,85,100,11.9,PH,1604109049
257,constitucion,-35.33,-72.42,57.83,70,0,6.85,CL,1604108830
258,san quintin,30.48,-115.95,48.99,25,100,1.01,MX,1604108479
259,kuching,1.55,110.33,80.6,88,20,3.36,MY,1604108987
260,maniitsoq,65.42,-52.9,20.66,85,74,6.06,GL,1604108831
261,doha,25.29,51.53,77.0,73,0,2.24,QA,1604108861
262,kudymkar,59.02,54.66,34.56,93,100,8.41,RU,1604109051
263,colac,-38.33,143.58,62.01,82,56,1.01,AU,1604109051
264,hopkinsville,36.87,-87.49,42.01,84,2,5.19,US,1604109052
265,enshi,30.3,109.48,58.8,84,100,0.67,CN,1604108699
266,armidale,-30.52,151.65,66.0,52,0,5.01,AU,1604109052
267,loudon,35.73,-84.33,46.99,76,0,5.64,US,1604109052
268,luocheng,29.38,104.03,63.1,72,100,3.56,CN,1604109053
269,buchanan,5.88,-10.05,77.5,88,97,7.63,LR,1604109053
270,leshukonskoye,64.9,45.76,29.98,98,46,5.61,RU,1604108523
271,farafangana,-22.82,47.83,67.44,68,39,4.47,MG,1604109053
272,san ramon,37.78,-121.98,66.0,63,1,6.93,US,1604108843
273,nanortalik,60.14,-45.24,26.74,92,87,8.99,GL,1604108481
274,lompoc,34.64,-120.46,60.8,82,1,5.82,US,1604108526
275,san jose,37.34,-121.89,66.99,54,0,2.46,US,1604108859
276,wanning,18.8,110.4,78.28,81,73,15.05,CN,1604109054
277,araouane,18.9,-3.53,81.57,16,69,11.1,ML,1604109055
278,labuhan,-6.88,112.21,82.9,69,89,4.27,ID,1604109038
279,ravar,31.27,56.81,46.99,53,0,2.17,IR,1604109055
280,mikhaylovka,50.06,43.24,51.01,85,100,3.0,RU,1604109056
281,karla,59.37,24.93,44.01,93,90,2.24,EE,1604109056
282,mazamari,-11.33,-74.53,71.85,82,100,0.72,PE,1604109056
283,shingu,33.73,135.98,60.8,44,20,3.36,JP,1604108870
284,atambua,-9.11,124.89,89.19,43,3,2.59,ID,1604109057
285,apache junction,33.42,-111.55,78.8,24,75,4.7,US,1604109057
286,pano polemidia,34.7,33.0,66.2,55,0,3.36,CY,1604109057
287,alofi,-19.06,-169.92,78.8,78,90,17.22,NU,1604108501
288,bambanglipuro,-7.95,110.28,84.16,68,57,3.67,ID,1604108941
289,ouadda,8.08,22.4,66.74,91,100,1.77,CF,1604109058
290,gat,31.61,34.76,73.0,100,73,1.01,IL,1604109058
291,vestmanna,62.16,-7.17,48.2,81,24,18.34,FO,1604109058
292,green river,41.53,-109.47,48.2,31,1,13.87,US,1604109000
293,angoche,-16.23,39.91,74.46,81,1,2.62,MZ,1604109059
294,bethel,41.37,-73.41,33.8,80,1,2.98,US,1604108569
295,mahibadhoo,3.78,72.97,82.6,73,29,7.63,MV,1604109059
296,halifax,44.65,-63.57,37.0,64,100,8.05,CA,1604108922
297,sao joao da barra,-21.64,-41.05,73.15,97,100,6.22,BR,1604109060
298,lagoa,39.05,-27.98,67.71,95,100,14.56,PT,1604108466
299,swellendam,-34.02,20.44,48.2,81,0,3.91,ZA,1604109060
300,skjervoy,70.03,20.97,32.41,86,0,19.08,NO,1604109061
301,tilichiki,60.47,166.1,30.58,96,88,2.01,RU,1604109061
302,auki,-8.77,160.7,83.14,77,97,4.07,SB,1604109061
303,havre-saint-pierre,50.23,-63.6,23.0,67,1,5.82,CA,1604108571
304,chokurdakh,70.63,147.92,10.09,96,100,7.65,RU,1604108568
305,mehamn,71.04,27.85,30.6,95,32,9.6,NO,1604108872
306,souillac,-20.52,57.52,68.0,56,20,12.75,MU,1604108557
307,kralendijk,12.15,-68.27,82.4,88,50,4.7,BQ,1604109063
308,jalu,29.03,21.55,61.18,73,11,9.26,LY,1604108524
309,paripiranga,-10.69,-37.86,69.49,99,96,6.96,BR,1604109064
310,myitkyina,25.38,97.4,75.47,81,68,2.53,MM,1604109064
311,vila franca do campo,37.72,-25.43,69.8,94,75,17.22,PT,1604109064
312,eureka,40.8,-124.16,54.0,38,0,1.99,US,1604109064
313,zalantun,48.0,122.72,33.58,92,100,2.89,CN,1604109065
314,ust-barguzin,53.45,108.98,31.17,91,100,4.52,RU,1604109065
315,maraba,-5.37,-49.12,74.8,98,100,1.14,BR,1604109065
316,kautokeino,69.01,23.04,15.53,91,0,14.34,NO,1604109065
317,kota tinggi,1.74,103.9,84.0,88,20,3.36,MY,1604109066
318,bubaque,11.28,-15.83,83.97,74,34,10.54,GW,1604109066
319,lieksa,63.32,30.02,31.62,95,0,4.03,FI,1604109066
320,klaksvik,62.23,-6.59,48.2,81,13,24.16,FO,1604108698
321,sungaipenuh,-2.08,101.38,76.5,71,57,1.59,ID,1604109067
322,okhotsk,59.38,143.3,21.63,85,100,12.41,RU,1604109067
323,aasiaat,68.71,-52.87,19.33,96,95,3.98,GL,1604108825
324,ngunguru,-35.62,174.5,69.08,81,22,15.1,NZ,1604109068
325,alvaraes,-3.22,-64.8,79.07,83,27,2.57,BR,1604109068
326,mahanoro,-19.9,48.8,67.78,72,82,5.41,MG,1604109068
327,cochrane,51.18,-114.47,50.0,45,75,14.99,CA,1604109069
328,touros,-5.2,-35.46,77.0,88,40,5.82,BR,1604108959
329,slonim,53.09,25.32,42.62,85,71,4.07,BY,1604109069
330,kavaratti,10.57,72.64,82.45,70,18,8.63,IN,1604108481
331,coquimbo,-29.95,-71.34,53.6,87,90,6.93,CL,1604108917
332,mersing,2.43,103.84,82.4,83,20,3.36,MY,1604109070
333,port lincoln,-34.73,135.87,60.51,70,64,11.86,AU,1604108483
334,waingapu,-9.66,120.26,86.49,63,74,10.63,ID,1604109070
335,aksarka,66.56,67.8,34.47,98,100,14.52,RU,1604109071
336,sale,34.04,-6.82,57.2,100,40,5.5,MA,1604109071
337,russell,32.35,-85.2,57.2,87,1,3.36,US,1604108874
338,skibbereen,51.55,-9.27,55.4,100,90,23.04,IE,1604108817
339,knoxville,35.96,-83.92,46.4,87,1,5.64,US,1604109003
340,abu samrah,35.3,37.18,61.14,66,100,2.1,SY,1604109072
341,sylacauga,33.17,-86.25,53.6,71,1,6.38,US,1604109022
342,caldwell,43.66,-116.69,59.0,44,75,10.29,US,1604109072
343,kolindros,40.48,22.48,55.0,68,0,4.92,GR,1604109073
344,adilabad,19.67,78.53,71.33,60,1,1.66,IN,1604109073
345,port elizabeth,-33.92,25.57,50.0,93,75,4.7,ZA,1604108567
346,nova ushytsya,48.84,27.27,43.0,95,96,4.14,UA,1604109073
347,sur,22.57,59.53,75.06,63,0,10.25,OM,1604108610
348,vostok,46.49,135.88,37.89,84,98,3.6,RU,1604108698
349,berlevag,70.86,29.09,31.48,93,49,8.25,NO,1604108479
350,bambous virieux,-20.34,57.76,68.0,56,20,12.75,MU,1604108426
351,wittlich,49.98,6.88,51.8,93,90,3.4,DE,1604109075
352,kirensk,57.79,108.11,19.94,92,100,1.39,RU,1604109075
353,sa kaeo,13.75,102.33,80.73,85,9,8.48,TH,1604109075
354,porto novo,6.5,2.6,77.38,90,5,4.07,BJ,1604109076
355,at-bashi,41.17,75.81,25.34,67,0,3.74,KG,1604108785
356,general cepeda,25.38,-101.45,57.2,44,5,5.82,MX,1604109076
357,yokadouma,3.52,15.05,69.75,96,99,0.81,CM,1604109076
358,kang,-23.68,22.79,77.04,19,99,10.85,BW,1604109077
359,deputatskiy,69.3,139.9,2.71,95,100,2.04,RU,1604109077
360,morros,-9.45,-46.3,75.83,76,43,2.21,BR,1604109078
361,tomatlan,19.93,-105.25,76.39,90,100,0.78,MX,1604108643
362,boa vista,2.82,-60.67,80.6,69,20,2.24,BR,1604109079
363,kandiari,26.92,68.52,69.44,25,0,2.46,PK,1604109079
364,bayan,46.08,127.4,50.0,33,100,17.4,CN,1604109079
365,lipin bor,60.26,37.98,42.67,93,94,5.12,RU,1604109079
366,port said,31.26,32.28,75.2,78,40,13.87,EG,1604109080
367,jogeva,58.75,26.39,46.99,100,74,4.7,EE,1604109080
368,rio grande,-32.03,-52.1,59.0,83,99,11.32,BR,1604108679
369,bud,39.45,-86.18,37.99,77,1,3.0,US,1604109080
370,flinders,-34.58,150.86,64.0,93,50,4.0,AU,1604108484
371,brigantine,39.41,-74.36,46.0,87,1,4.7,US,1604108821
372,nyurba,63.28,118.33,-2.02,88,55,2.71,RU,1604109081
373,jardim,-21.48,-56.14,68.59,84,82,3.96,BR,1604109026
374,bonthe,7.53,-12.51,78.26,87,17,5.57,SL,1604109082
375,punta alta,-38.88,-62.07,59.0,45,0,13.58,AR,1604109082
376,khani,41.96,42.96,51.8,93,100,2.24,GE,1604109082
377,natal,-5.79,-35.21,78.8,78,40,9.17,BR,1604108655
378,sao filipe,14.9,-24.5,81.12,59,100,15.55,CV,1604108788
379,la ronge,55.1,-105.28,23.0,85,100,18.34,CA,1604108523
380,drayton valley,53.22,-114.99,36.0,77,100,17.0,CA,1604108951
381,omboue,-1.57,9.26,76.75,90,100,6.2,GA,1604108846
382,kawalu,-7.38,108.21,82.63,69,67,2.48,ID,1604109084
383,yelizavetino,59.49,29.79,45.0,93,90,6.71,RU,1604109084
384,clyde river,70.47,-68.59,8.6,84,1,5.82,CA,1604108525
385,show low,34.25,-110.03,51.8,43,1,4.7,US,1604109084
386,biltine,14.53,20.92,80.76,22,24,11.5,TD,1604109084
387,tuatapere,-46.13,167.68,53.01,97,100,14.0,NZ,1604109085
388,paamiut,61.99,-49.67,26.46,84,71,17.36,GL,1604108525
389,kuito,-12.38,16.93,61.45,90,100,3.27,AO,1604109085
390,dingle,11.0,122.67,83.64,79,100,11.27,PH,1604109085
391,presidencia roque saenz pena,-26.79,-60.44,59.54,74,0,6.22,AR,1604109063
392,mae hong son,19.3,97.97,75.2,88,75,0.76,TH,1604109086
393,zhigansk,66.77,123.37,-10.89,89,95,0.65,RU,1604108654
394,mar del plata,-38.0,-57.56,55.0,81,0,4.7,AR,1604108828
395,bandar-e lengeh,26.56,54.88,75.76,55,0,9.62,IR,1604109087
396,salalah,17.02,54.09,73.4,40,0,5.82,OM,1604109087
397,gerash,27.67,54.14,57.2,44,0,1.19,IR,1604109087
398,lubango,-14.92,13.49,63.81,78,99,1.59,AO,1604109087
399,novaya igirma,57.13,103.91,23.11,95,100,4.12,RU,1604109088
400,srirampur,22.95,88.02,77.0,78,40,4.7,IN,1604109088
401,redmond,47.67,-122.12,52.0,79,86,5.88,US,1604108444
402,mogok,22.92,96.5,68.7,100,64,1.95,MM,1604109088
403,balkanabat,39.51,54.37,56.97,34,0,4.21,TM,1604109089
404,manaure,11.78,-72.44,83.1,78,91,8.84,CO,1604109089
405,beloha,-25.17,45.05,62.01,73,0,9.24,MG,1604108697
406,novyye gorki,56.73,41.06,39.49,90,91,1.86,RU,1604109090
407,hualmay,-11.1,-77.61,62.67,84,100,5.23,PE,1604108787
408,xichang,27.9,102.26,66.06,71,99,3.24,CN,1604109090
409,boguchany,58.38,97.45,9.75,92,0,3.51,RU,1604109091
410,saint-esteve,42.71,2.84,46.4,93,0,1.59,FR,1604109091
411,fukue,32.69,128.84,62.6,48,20,9.17,JP,1604109091
412,ordzhonikidze,52.44,61.74,37.18,78,72,8.1,KZ,1604109091
413,nador,35.17,-2.93,62.6,82,0,4.7,MA,1604109091
414,miastko,54.0,16.98,42.01,94,5,2.82,PL,1604109092
415,hervey bay,-25.3,152.85,84.2,54,40,25.28,AU,1604108779
416,rastu,43.88,23.28,45.0,87,0,8.05,RO,1604109092
417,juarez,31.73,-106.48,66.2,27,40,4.05,MX,1604108901
418,abadan,30.34,48.3,57.2,58,0,2.24,IR,1604109093
419,broome,42.25,-75.83,30.2,74,90,5.82,US,1604108873
420,yurimaguas,-5.9,-76.08,73.76,98,100,2.68,PE,1604109093
421,uyskoye,54.38,60.0,36.39,78,99,7.4,RU,1604109094
422,fare,-16.7,-151.02,79.52,74,0,15.52,PF,1604109094
423,lydenburg,-25.1,30.46,68.0,89,40,3.0,ZA,1604109094
424,pravda,46.94,142.01,44.6,75,40,2.24,RU,1604109095
425,nuevo progreso,23.17,-97.95,64.0,51,0,1.01,MX,1604109095
426,knin,44.04,16.2,55.0,81,0,2.24,HR,1604109095
427,itaituba,-4.28,-55.98,75.27,94,100,4.34,BR,1604109095
428,veraval,20.9,70.37,78.13,54,0,7.67,IN,1604109096
429,nocupetaro,19.05,-101.15,72.93,77,3,2.35,MX,1604109096
430,ankara,39.92,32.85,50.0,81,75,3.36,TR,1604108889
431,hammerfest,70.66,23.68,30.2,63,0,28.86,NO,1604109096
432,chernyshevsk,52.52,117.02,29.55,88,100,13.2,RU,1604109097
433,kalmunai,7.42,81.82,80.31,78,100,8.25,LK,1604108464
434,san patricio,28.02,-97.52,63.0,59,1,5.82,US,1604109015
435,porto santo,33.07,-16.34,66.2,82,20,4.7,PT,1604109097
436,bandarbeyla,9.49,50.81,76.17,82,85,8.61,SO,1604109098
437,kedrovyy,56.17,91.82,26.6,92,75,2.24,RU,1604109098
438,lavrentiya,65.58,-171.0,21.51,88,0,9.78,RU,1604109098
439,katsuura,35.13,140.3,63.0,47,20,10.29,JP,1604108610
440,sisimiut,66.94,-53.67,20.34,91,98,6.8,GL,1604108563
441,qinhuangdao,39.93,119.59,59.97,51,81,14.36,CN,1604109099
442,esso,55.93,158.7,29.89,95,100,5.28,RU,1604109099
443,mimongo,-1.62,11.61,68.86,95,83,1.3,GA,1604109099
444,ponta delgada,37.73,-25.67,69.8,94,75,17.22,PT,1604109023
445,zorgo,12.25,-0.62,77.97,26,0,4.99,BF,1604109100
446,partsa,54.37,42.86,39.11,96,95,2.62,RU,1604109100
447,ripky,51.8,31.08,45.46,92,100,7.54,UA,1604109100
448,najran,17.49,44.13,59.0,30,0,1.77,SA,1604108869
449,cockburn town,21.46,-71.14,83.5,80,100,19.22,TC,1604108609
450,porto-vecchio,41.59,9.28,55.4,100,75,2.24,FR,1604108802
451,nueve de julio,-35.44,-60.88,54.0,64,0,1.01,AR,1604109101
452,kasama,-10.21,31.18,61.54,68,14,4.18,ZM,1604109101
453,itacare,-14.28,-39.0,78.8,88,20,3.36,BR,1604109102
454,viransehir,37.24,39.76,64.87,24,100,8.9,TR,1604109102
455,husavik,66.04,-17.34,42.8,70,20,21.92,IS,1604108544
456,ternate,0.8,127.4,84.79,72,73,9.55,ID,1604108852
457,balykshi,47.07,51.87,44.6,48,0,17.9,KZ,1604109103
458,placerville,38.73,-120.8,66.2,20,1,3.36,US,1604109028
459,belica,41.96,23.57,45.0,80,6,1.01,BG,1604109103
460,gori,41.98,44.12,59.74,42,100,5.59,GE,1604109104
461,douentza,15.0,-2.95,76.26,18,0,3.2,ML,1604109104
462,liverpool,53.41,-2.98,53.6,93,90,12.75,GB,1604108996
463,coihaique,-45.58,-72.07,57.2,54,0,3.36,CL,1604109105
464,aripuana,-9.17,-60.63,74.23,93,32,2.04,BR,1604109105
465,sistranda,63.73,8.83,46.4,87,75,13.87,NO,1604109105
466,sinnamary,5.38,-52.95,80.73,85,5,12.59,GF,1604108700
467,kismayo,-0.36,42.55,78.78,81,15,10.65,SO,1604109106
468,harer,9.31,42.13,54.75,92,96,1.97,ET,1604109106
469,sola,-13.88,167.55,81.66,78,100,15.43,VU,1604109106
470,mao,39.89,4.27,60.8,93,0,5.82,ES,1604109106
471,barabai,-2.58,115.38,87.17,67,44,2.46,ID,1604109107
472,pitimbu,-7.47,-34.81,77.0,88,20,6.93,BR,1604108788
473,bogalusa,30.79,-89.85,52.0,87,1,3.36,US,1604108995
474,manokwari,-0.87,134.08,84.36,73,99,5.44,ID,1604108651
475,vanavara,60.34,102.28,7.72,95,91,3.94,RU,1604108611
476,hailar,49.2,119.7,33.55,97,100,2.71,CN,1604108861
477,zapolyarnyy,69.42,30.81,26.6,86,0,4.7,RU,1604109108
478,grand gaube,-20.01,57.66,63.0,65,0,3.0,MU,1604109108
479,baykit,61.67,96.37,1.89,88,0,2.42,RU,1604109109
480,manzil salim,35.86,8.48,46.4,70,0,3.36,TN,1604109109
481,clearwater,27.97,-82.8,69.8,72,0,4.7,US,1604109109
482,pandan,14.05,124.17,82.22,83,100,19.44,PH,1604109109
483,jiazi,22.88,116.07,72.3,59,0,16.6,CN,1604109110
484,tahoua,14.89,5.27,80.19,16,2,10.0,NE,1604109110
485,kenora,49.82,-94.43,30.2,86,75,10.29,CA,1604108837
486,aloleng,16.13,119.78,85.03,67,59,4.85,PH,1604109110
487,krasnyy chikoy,50.36,108.75,27.41,92,98,5.1,RU,1604108956
488,buala,-8.14,159.59,85.23,67,66,2.08,SB,1604109111
489,anadyr,64.75,177.48,6.8,84,20,6.71,RU,1604109111
490,ilebo,-4.32,20.58,68.16,94,5,0.72,CD,1604109111
491,bahce,37.2,36.58,62.6,45,40,6.93,TR,1604109111
492,bosaso,11.28,49.18,79.68,71,58,5.91,SO,1604109112
493,comodoro rivadavia,-45.87,-67.5,60.8,51,0,4.7,AR,1604108575
494,kot addu,30.47,70.97,62.6,82,0,2.98,PK,1604109112
495,petropavl,54.88,69.16,28.4,86,0,8.95,KZ,1604108697
496,novo oriente,-5.53,-40.77,79.29,39,14,3.85,BR,1604109113
497,yermolayevo,52.72,55.8,39.29,70,100,10.13,RU,1604109113
498,pindi gheb,33.24,72.27,50.0,71,0,4.7,PK,1604109113
499,roald,62.58,6.13,48.2,76,100,12.75,NO,1604109114
500,kahului,20.89,-156.47,87.8,45,20,24.16,US,1604108903
501,mashhad,36.3,59.61,41.0,44,0,4.7,IR,1604109114
502,novopokrovka,49.84,36.55,48.2,81,90,6.71,UA,1604109114
503,pak phanang,8.35,100.2,82.4,88,40,2.24,TH,1604109115
504,mahebourg,-20.41,57.7,68.0,56,20,12.75,MU,1604108524
505,rio gallegos,-51.62,-69.22,55.4,58,75,5.82,AR,1604108577
506,alenquer,-1.94,-54.74,77.0,88,20,4.52,BR,1604108999
507,cam ranh,11.92,109.16,77.0,94,75,3.36,VN,1604108831
508,shepsi,44.04,39.15,65.73,73,99,3.62,RU,1604109116
509,olinda,-8.01,-34.86,80.6,78,40,8.05,BR,1604109116
510,ruteng,-8.61,120.47,77.85,65,56,1.52,ID,1604109117
511,emporia,38.4,-96.18,53.6,58,1,9.17,US,1604109117
512,santander,43.46,-3.8,50.0,100,0,1.12,ES,1604109117
513,inuvik,68.35,-133.72,5.0,84,96,3.36,CA,1604109117
514,beringovskiy,63.05,179.32,24.06,86,82,12.93,RU,1604108566
515,bonga,7.28,36.23,58.32,91,93,1.92,ET,1604109118
516,kenai,60.55,-151.26,28.4,50,1,13.87,US,1604109016
517,west bay,19.37,-81.42,84.2,79,20,4.7,KY,1604109118
518,olden,61.84,6.81,39.0,93,100,5.84,NO,1604109118
519,limon,10.0,-83.03,80.69,80,35,7.67,CR,1604109119
520,rimavska sobota,48.38,20.02,45.0,79,96,1.01,SK,1604109119
521,tahe,52.33,124.73,26.26,97,100,6.69,CN,1604109119
522,port hardy,50.7,-127.42,48.2,93,20,4.7,CA,1604109119
523,nampula,-15.12,39.27,69.3,88,11,1.57,MZ,1604109120
524,blagoyevo,63.37,47.92,33.84,91,87,7.09,RU,1604109120
525,igrim,63.19,64.42,34.21,89,98,8.97,RU,1604109120
526,estelle,29.85,-90.11,60.8,87,0,5.82,US,1604108742
527,mount isa,-20.73,139.5,80.6,18,0,9.17,AU,1604108831
528,lata,40.16,-8.33,61.0,90,0,1.72,PT,1604108567
529,ocampo,21.65,-101.5,53.02,53,0,8.37,MX,1604109121
530,namatanai,-3.67,152.43,84.87,68,99,3.67,PG,1604108743
531,kushima,31.46,131.23,64.4,55,20,13.87,JP,1604108568
532,monastyrishche,44.19,132.5,49.08,64,77,16.11,RU,1604109123
533,hirado,33.36,129.55,64.99,42,0,8.05,JP,1604109123
534,ancud,-41.87,-73.82,53.01,81,0,5.82,CL,1604109123
535,springfield,37.22,-93.3,48.99,70,1,9.17,US,1604108966
536,college,64.86,-147.8,12.2,78,90,3.36,US,1604108917
537,westport,41.14,-73.36,36.0,79,1,6.93,US,1604108525
538,numata,36.63,139.05,62.01,37,0,3.0,JP,1604109124
539,pemangkat,1.17,108.97,83.64,73,44,7.2,ID,1604109005
540,hot springs,34.5,-93.06,48.2,81,1,3.36,US,1604108830
541,tiznit,29.58,-9.5,68.32,25,0,4.38,MA,1604108919
542,tymovskoye,50.85,142.66,42.03,65,2,2.46,RU,1604109125
543,aspindza,41.57,43.25,59.11,40,100,6.24,GE,1604109125
544,lethem,3.38,-59.8,81.43,71,36,2.89,GY,1604109126
545,tungor,53.38,142.96,39.29,71,43,7.7,RU,1604109126
546,muroto,33.28,134.15,62.6,45,20,6.93,JP,1604109126
547,khash,28.22,61.22,39.31,66,0,1.81,IR,1604109126
548,chunhuhub,19.55,-88.68,72.64,99,95,4.16,MX,1604109127
549,fershampenuaz,53.52,59.81,36.68,78,99,9.48,RU,1604109127
550,san bartolome de tirajana,27.92,-15.57,77.0,31,0,4.7,ES,1604109127
551,la cruz,23.92,-106.9,75.99,74,49,1.01,MX,1604109128
552,juba,4.85,31.58,71.15,87,55,0.96,SS,1604109128
